[{
  "_id": {
    "$oid": "66ec66b9ed645ca38036134b"
  },
  "name": "Hospital Garrahan",
  "dire": "Combate De Los Pozos 1881",
  "type": "Hospital de niños",
  "lat": -34.631023,
  "lng": -58.39333,
  "imageUrl": "/imagenes-Hospitales/Garrahan103918.png",
  "phone": 1126417088,
  "guards": [{
      "typeguard": "Pediatria",
      "state": "Libre",
      "piso": "1"},
      {
      "typeguard": "Clinica",
      "state": "Libre",
      "piso": "1"},
      {
      "typeguard": "Ginecologia",
      "state": "Ocupado",
      "piso": "2"
      },
      {
      "typeguard": "Oftalmologica",
      "state": "Ocupado",
      "piso": "2"
      }
  ],
  "comments": [
    {
      "$oid": "66ec4143964ffbd9333c766c"
    },
    {
      "$oid": "66ec4143964ffbd9333c766d"
    },
    {
      "$oid": "66ec4143964ffbd9333c766e"
    }
  ]
},
{
  "_id": {
    "$oid": "66ec66b9ed645ca38036134c"
  },
  "name": "Hospital General De Agudos Dr. Teodoro Alvarez",
  "dire": "Aranguren 2701",
  "type": "Atencion Hospitalaria General",
  "lat": -34.623829,
  "lng": -58.469616,
  "imageUrl": "/imagenes-Hospitales/HospitalAlvarez.png",
  "phone": 1111,
  "comments": [
    {
      "$oid": "66ec4143964ffbd9333c766c"
    },
    {
      "$oid": "66ec4143964ffbd9333c766d"
    },
    {
      "$oid": "66ec4143964ffbd9333c766e"
    }
  ]
},
{
  "_id": {
    "$oid": "66ec66b9ed645ca38036134d"
  },
  "name": "Hospital de Emergencias Psiquiátricas Dr. Torcuato de Alvear",
  "dire": "Warnes 2630",
  "type": "Hospital Psiquiatrico",
  "lat": -34.597042,
  "lng": -58.474663,
  "imageUrl": "/imagenes-Hospitales/Hospital-PsiquiatricoAlvear.png",
  "phone": 1111,
  "comments": [
    {
      "$oid": "66ec4143964ffbd9333c766c"
    },
    {
      "$oid": "66ec4143964ffbd9333c766d"
    },
    {
      "$oid": "66ec4143964ffbd9333c766e"
    }
  ]
},
{
  "_id": {
    "$oid": "66ec66b9ed645ca38036134e"
  },
  "name": "Hospital General de Agudos Dr. Cosme Argerich",
  "dire": "Pi y Margall 750",
  "type": "Atencion Hospitalaria General",
  "lat": -34.628101,
  "lng": -58.366016,
  "imageUrl": "/imagenes-Hospitales/ArgerichHospital.png",
  "phone": 1111,
  "comments": [
    {
      "$oid": "66ec4143964ffbd9333c766c"
    },
    {
      "$oid": "66ec4143964ffbd9333c766d"
    },
    {
      "$oid": "66ec4143964ffbd9333c766e"
    }
  ]
},
{
  "_id": {
    "$oid": "66ec66b9ed645ca38036134f"
  },
  "name": "Hospital Interdisciplinario Psicoasistencial José Tiburcio Borda",
  "dire": "Av. Ramón Carrillo 375",
  "type": "Hospital Psiquiatrico",
  "lat": -34.636435,
  "lng": -58.382128,
  "imageUrl": "/imagenes-Hospitales/Borda.png",
  "phone": 1111,
  "comments": [
    {
      "$oid": "66ec4143964ffbd9333c766c"
    },
    {
      "$oid": "66ec4143964ffbd9333c766d"
    },
    {
      "$oid": "66ec4143964ffbd9333c766e"
    }
  ]
},
{
  "_id": {
    "$oid": "66ec66b9ed645ca380361350"
  },
  "name": "Hospital General de Agudos DR. Carlos Durand",
  "dire": "Av. Díaz Vélez 5044",
  "type": "Atencion Hospitalaria General",
  "lat": -34.610001,
  "lng": -58.438,
  "imageUrl": "/imagenes-Hospitales/Durand.png",
  "phone": 1111,
  "comments": [
    {
      "$oid": "66ec4143964ffbd9333c766c"
    },
    {
      "$oid": "66ec4143964ffbd9333c766d"
    },
    {
      "$oid": "66ec4143964ffbd9333c766e"
    }
  ]
},
{
  "_id": {
    "$oid": "66ec66b9ed645ca380361351"
  },
  "name": "Hospital Dr. Pedro de Elizalde",
  "dire": "Av. Montes de Oca 40",
  "type": "Hospital de niños",
  "lat": -34.629147,
  "lng": -58.376427,
  "imageUrl": "/imagenes-Hospitales/Elizalde.png",
  "phone": 1111,
  "comments": [
    {
      "$oid": "66ec4143964ffbd9333c766c"
    },
    {
      "$oid": "66ec4143964ffbd9333c766d"
    },
    {
      "$oid": "66ec4143964ffbd9333c766e"
    }
  ]
},
{
  "_id": {
    "$oid": "66ec66b9ed645ca380361352"
  },
  "name": "Hospital Oftalmologico Doctor Pedro Lagleyse",
  "dire": "Av. Juan Bautista Justo 4151",
  "type": "Hospital Oftamologico",
  "lat": -34.62271,
  "lng": -58.394358,
  "imageUrl": "/imagenes-Hospitales/Lagleyze.png",
  "phone": 1111,
  "comments": [
    {
      "$oid": "66ec4143964ffbd9333c766c"
    },
    {
      "$oid": "66ec4143964ffbd9333c766d"
    },
    {
      "$oid": "66ec4143964ffbd9333c766e"
    }
  ]
},
{
  "_id": {
    "$oid": "66ec66b9ed645ca380361353"
  },
  "name": "Hospital de Oftalmología Santa Lucía",
  "dire": "Av. San Juan 2021",
  "type": "Hospital Oftamologico",
  "lat": -34.605507,
  "lng": -58.460094,
  "imageUrl": "/imagenes-Hospitales/Lucia.png",
  "phone": 1111,
  "comments": [
    {
      "$oid": "66ec4143964ffbd9333c766c"
    },
    {
      "$oid": "66ec4143964ffbd9333c766d"
    },
    {
      "$oid": "66ec4143964ffbd9333c766e"
    }
  ]
},
{
  "_id": {
    "$oid": "66ec66b9ed645ca380361354"
  },
  "name": "Hospital General de Niños Dr. Ricardo Gutiérrez",
  "dire": "Gallo 1330",
  "type": "Hospital de niños",
  "lat": -34.5944,
  "lng": -58.41114,
  "imageUrl": "/imagenes-Hospitales/Gutierrez.png",
  "phone": 1111,
  "comments": [
    {
      "$oid": "66ec4143964ffbd9333c766c"
    },
    {
      "$oid": "66ec4143964ffbd9333c766d"
    },
    {
      "$oid": "66ec4143964ffbd9333c766e"
    }
  ]
},
{
  "_id": {
    "$oid": "66ec66b9ed645ca380361355"
  },
  "name": "Hospital Neuropsiquiàtrico Dr Braulio A. Moyano",
  "dire": "Brandsen 2570",
  "type": "Hospital Neuropsiquiatrico",
  "lat": -34.639549,
  "lng": -58.38438,
  "imageUrl": "/imagenes-Hospitales/Moyano.png",
  "phone": 1111,
  "comments": [
    {
      "$oid": "66ec4143964ffbd9333c766c"
    },
    {
      "$oid": "66ec4143964ffbd9333c766d"
    },
    {
      "$oid": "66ec4143964ffbd9333c766e"
    }
  ]
},
{
  "_id": {
    "$oid": "66ec66b9ed645ca380361356"
  },
  "name": "Hospital de Enfermedades Infecciosas Dr. Francisco Muñiz",
  "dire": "Uspallata 2272",
  "type": "Hospital de Enfermedades Infecciosas",
  "lat": -34.639076,
  "lng": -58.393524,
  "imageUrl": "/imagenes-Hospitales/Muñiz.png",
  "phone": 1111,
  "comments": [
    {
      "$oid": "66ec4143964ffbd9333c766c"
    },
    {
      "$oid": "66ec4143964ffbd9333c766d"
    },
    {
      "$oid": "66ec4143964ffbd9333c766e"
    }
  ]
},
{
  "_id": {
    "$oid": "66ec66b9ed645ca380361357"
  },
  "name": "Hospital General de Agudos Dr. José Penna",
  "dire": "Pedro Chutro 3380",
  "type": "Atencion Hospitalaria General",
  "lat": -34.643471,
  "lng": -58.410686,
  "imageUrl": "/imagenes-Hospitales/Penna.png",
  "phone": 1111,
  "comments": [
    {
      "$oid": "66ec4143964ffbd9333c766c"
    },
    {
      "$oid": "66ec4143964ffbd9333c766d"
    },
    {
      "$oid": "66ec4143964ffbd9333c766e"
    }
  ]
},
{
  "_id": {
    "$oid": "66ec66b9ed645ca380361358"
  },
  "name": "Hospital General de Agudos Dr. Parmenio Piñero",
  "dire": "Av. Varela 1300",
  "type": "Atencion Hospitalaria General",
  "lat": -34.644409,
  "lng": -58.454727,
  "imageUrl": "/imagenes-Hospitales/Piñero.png",
  "phone": 1111,
  "comments": [
    {
      "$oid": "66ec4143964ffbd9333c766c"
    },
    {
      "$oid": "66ec4143964ffbd9333c766d"
    },
    {
      "$oid": "66ec4143964ffbd9333c766e"
    }
  ]
},
{
  "_id": {
    "$oid": "66ec66b9ed645ca380361359"
  },
  "name": "Hospital General de Agudos Dr. Ignacio Pirovano",
  "dire": "Monroe 3555",
  "type": "Atencion Hospitalaria General",
  "lat": -34.565151,
  "lng": -58.471004,
  "imageUrl": "/imagenes-Hospitales/Pirovano.png",
  "phone": 1111,
  "comments": [
    {
      "$oid": "66ec4143964ffbd9333c766c"
    },
    {
      "$oid": "66ec4143964ffbd9333c766d"
    },
    {
      "$oid": "66ec4143964ffbd9333c766e"
    }
  ]
},
{
  "_id": {
    "$oid": "66ec66b9ed645ca38036135a"
  },
  "name": "Hospital General de Agudos Dr. José María Ramos Mejía",
  "dire": "Gral. Urquiza 609",
  "type": "Atencion Hospitalaria General",
  "lat": -34.617661,
  "lng": -58.409611,
  "imageUrl": "/imagenes-Hospitales/Mejia.png",
  "phone": 1111,
  "comments": [
    {
      "$oid": "66ec4143964ffbd9333c766c"
    },
    {
      "$oid": "66ec4143964ffbd9333c766d"
    },
    {
      "$oid": "66ec4143964ffbd9333c766e"
    }
  ]
},
{
  "_id": {
    "$oid": "66ec66b9ed645ca38036135b"
  },
  "name": "Hospital General de Agudos Dr. Bernardino Rivadavia",
  "dire": "Av. Las Heras 2670",
  "type": "Atencion Hospitalaria General",
  "lat": -34.584248,
  "lng": -58.401508,
  "imageUrl": "/imagenes-Hospitales/Rivadavia.png",
  "phone": 1111,
  "comments": [
    {
      "$oid": "66ec4143964ffbd9333c766c"
    },
    {
      "$oid": "66ec4143964ffbd9333c766d"
    },
    {
      "$oid": "66ec4143964ffbd9333c766e"
    }
  ]
},
{
  "_id": {
    "$oid": "66ec66b9ed645ca38036135c"
  },
  "name": "Hospital General de Agudos Donación Francisco Santojanni",
  "dire": "Pilar 950",
  "type": "Atencion Hospitalaria General",
  "lat": -34.648743,
  "lng": -58.51511,
  "imageUrl": "/imagenes-Hospitales/Santojanni.png",
  "phone": 1111,
  "comments": [
    {
      "$oid": "66ec4143964ffbd9333c766c"
    },
    {
      "$oid": "66ec4143964ffbd9333c766d"
    },
    {
      "$oid": "66ec4143964ffbd9333c766e"
    }
  ]
},
{
  "_id": {
    "$oid": "66ec66b9ed645ca38036135d"
  },
  "name": "Hospital Infanto Juvenil Dra. Carolina Tobar García",
  "dire": "Dr. Ramón Carrillo 315",
  "type": "Hospital de niños",
  "lat": -34.636669,
  "lng": -58.3825,
  "imageUrl": "/imagenes-Hospitales/Garcia.png",
  "phone": 1111,
  "comments": [
    {
      "$oid": "66ec4143964ffbd9333c766c"
    },
    {
      "$oid": "66ec4143964ffbd9333c766d"
    },
    {
      "$oid": "66ec4143964ffbd9333c766e"
    }
  ]
},
{
  "_id": {
    "$oid": "66ec66b9ed645ca38036135e"
  },
  "name": "Hospital General de Agudos Dr. Enrique Tornú",
  "dire": "Combatientes de Malvinas 3002",
  "type": "Atencion Hospitalaria General",
  "lat": -34.586521,
  "lng": -58.47184,
  "imageUrl": "/imagenes-Hospitales/Tornu.png",
  "phone": 1111,
  "comments": [
    {
      "$oid": "66ec4143964ffbd9333c766c"
    },
    {
      "$oid": "66ec4143964ffbd9333c766d"
    },
    {
      "$oid": "66ec4143964ffbd9333c766e"
    }
  ]
},
{
  "_id": {
    "$oid": "66ec66b9ed645ca38036135f"
  },
  "name": "Hospital General de Agudos Dalmacio Vélez Sarfield",
  "dire": "Calderón de la Barca 1550",
  "type": "Atencion Hospitalaria General",
  "lat": -34.625374,
  "lng": -58.507671,
  "imageUrl": "/imagenes-Hospitales/Velez.png",
  "phone": 1126417088,
  "comments": [
    {
      "$oid": "66ec4143964ffbd9333c766c"
    },
    {
      "$oid": "66ec4143964ffbd9333c766d"
    },
    {
      "$oid": "66ec4143964ffbd9333c766e"
    }
  ]
},
{
  "_id": {
    "$oid": "66ec66b9ed645ca380361360"
  },
  "name": "Hospital General de Agudos Dr. Abel Zubizarreta",
  "dire": "Nueva York 3952",
  "type": "Atencion Hospitalaria General",
  "lat": -34.599941,
  "lng": -58.511009,
  "imageUrl": "/imagenes-Hospitales/Zubizarreta.png",
  "phone": 1126417088,
  "comments": [
    {
      "$oid": "66ec4143964ffbd9333c766c"
    },
    {
      "$oid": "66ec4143964ffbd9333c766d"
    },
    {
      "$oid": "66ec4143964ffbd9333c766e"
    }
  ]
},
{
  "_id": {
    "$oid": "66ec66b9ed645ca380361361"
  },
  "name": "Hospital General de Agudos Dr. Juan A. Fernández",
  "dire": "Silvio L. Ruggieri 2855",
  "type": "Atencion Hospitalaria General",
  "lat": -34.58139,
  "lng": -58.40694,
  "imageUrl": "/imagenes-Hospitales/Fernandez.png",
  "phone": 1126417088,
  "comments": [
    {
      "$oid": "66ec4143964ffbd9333c766c"
    },
    {
      "$oid": "66ec4143964ffbd9333c766d"
    },
    {
      "$oid": "66ec4143964ffbd9333c766e"
    }
  ]
},
{
  "_id": {
    "$oid": "66ec66b9ed645ca380361362"
  },
  "name": "Hospital de Clínicas José de San Martín",
  "dire": "Avenida Córdoba 2351",
  "type": "Atencion Hospitalaria General",
  "lat": -34.599258,
  "lng": -58.400043,
  "imageUrl": "/imagenes-Hospitales/Martin.png",
  "phone": 1126417088,
  "comments": [
    {
      "$oid": "66ec4143964ffbd9333c766c"
    },
    {
      "$oid": "66ec4143964ffbd9333c766d"
    },
    {
      "$oid": "66ec4143964ffbd9333c766e"
    }
  ]
}]